{
  "Entries": [
    {
      "RequestUri": "https://atlas.microsoft.com/search/address/json?api-version=1.0\u0026query=pizza",
      "RequestMethod": "GET",
      "RequestHeaders": {
        "Accept": "application/json",
        "Accept-Encoding": "gzip, deflate, br",
        "Accept-Language": "en-US",
        "Connection": "keep-alive",
        "Referer": "http://localhost:9876/",
        "sec-ch-ua": "",
        "sec-ch-ua-mobile": "?0",
        "sec-ch-ua-platform": "",
        "Sec-Fetch-Dest": "empty",
        "Sec-Fetch-Mode": "cors",
        "Sec-Fetch-Site": "same-site",
        "subscription-key": "azure_maps_subscription_key",
        "User-Agent": "Mozilla/5.0 (X11; Linux x86_64) AppleWebKit/537.36 (KHTML, like Gecko) HeadlessChrome/103.0.5058.0 Safari/537.36",
        "x-ms-client-request-id": "5be412e9-5ee0-46db-abf7-a79b2b836e1c",
        "x-ms-useragent": "azsdk-js-maps-search/1.0.0-beta.1 core-rest-pipeline/1.9.3 OS/Linuxx86_64"
      },
      "RequestBody": null,
      "StatusCode": 200,
      "ResponseHeaders": {
        "Content-Length": "5940",
        "Content-Type": "application/json; charset=utf-8",
        "Date": "Thu, 06 Oct 2022 02:38:51 GMT",
        "Strict-Transport-Security": "max-age=31536000; includeSubDomains",
        "Vary": "Accept-Encoding",
        "X-Cache": "CONFIG_NOCACHE",
        "X-Content-Type-Options": "nosniff",
        "x-ms-azuremaps-region": "West Europe",
        "X-MSEdge-Ref": "Ref A: 447F0827DF184B1F9629A45082DA88F5 Ref B: SG1EDGE0118 Ref C: 2022-10-06T02:38:51Z"
      },
      "ResponseBody": {
        "summary": {
          "query": "pizza",
          "queryType": "NON_NEAR",
          "queryTime": 13,
          "numResults": 10,
          "offset": 0,
          "totalResults": 61,
          "fuzzyLevel": 1
        },
        "results": [
          {
            "type": "Street",
            "id": "US/STR/p2/4309765",
            "score": 2.1169600487,
            "matchConfidence": {
              "score": 1
            },
            "address": {
              "streetName": "Pizza Lane",
              "municipality": "Woodville",
              "countrySecondarySubdivision": "Wilkinson",
              "countrySubdivision": "MS",
              "countrySubdivisionName": "Mississippi",
              "countryCode": "US",
              "country": "United States",
              "countryCodeISO3": "USA",
              "freeformAddress": "Pizza Lane, Woodville, MS",
              "localName": "Woodville"
            },
            "position": {
              "lat": 31.08642,
              "lon": -91.30197
            },
            "viewport": {
              "topLeftPoint": {
                "lat": 31.08883,
                "lon": -91.30422
              },
              "btmRightPoint": {
                "lat": 31.08593,
                "lon": -91.30157
              }
            }
          },
          {
            "type": "Street",
            "id": "BR/STR/p0/741039",
            "score": 2.0962057114,
            "matchConfidence": {
              "score": 0.9219389503681287
            },
            "address": {
              "streetName": "Rua Lu\u00EDz Pizza",
              "municipality": "Assis",
              "countrySubdivision": "S\u00E3o Paulo",
              "postalCode": "19800, 19814",
              "extendedPostalCode": "19800-170, 19814-010, 19814-350, 19814-351",
              "countryCode": "BR",
              "country": "Brazil",
              "countryCodeISO3": "BRA",
              "freeformAddress": "Rua Lu\u00EDz Pizza, 19800, 19814, Assis",
              "localName": "Assis"
            },
            "position": {
              "lat": -22.65827,
              "lon": -50.41392
            },
            "viewport": {
              "topLeftPoint": {
                "lat": -22.65412,
                "lon": -50.414
              },
              "btmRightPoint": {
                "lat": -22.6616,
                "lon": -50.41386
              }
            }
          },
          {
            "type": "Street",
            "id": "BR/STR/p0/1692479",
            "score": 2.0962057114,
            "matchConfidence": {
              "score": 0.8982731622802224
            },
            "address": {
              "streetName": "Rua Toledo Pizza",
              "municipality": "Laguna",
              "countrySubdivision": "Santa Catarina",
              "countryCode": "BR",
              "country": "Brazil",
              "countryCodeISO3": "BRA",
              "freeformAddress": "Rua Toledo Pizza, Laguna",
              "localName": "Laguna"
            },
            "position": {
              "lat": -28.48941,
              "lon": -48.77317
            },
            "viewport": {
              "topLeftPoint": {
                "lat": -28.48071,
                "lon": -48.78341
              },
              "btmRightPoint": {
                "lat": -28.49869,
                "lon": -48.76294
              }
            }
          },
          {
            "type": "Street",
            "id": "BR/STR/p0/2340946",
            "score": 2.0962057114,
            "matchConfidence": {
              "score": 0.8982731622802224
            },
            "address": {
              "streetName": "Rua Toledo Pizza",
              "municipalitySubdivision": "Ch\u00E1caras Rio-Petr\u00F3polis",
              "municipality": "Duque de Caxias",
              "countrySubdivision": "Rio de Janeiro",
              "postalCode": "25041, 25230",
              "extendedPostalCode": "25041-580",
              "countryCode": "BR",
              "country": "Brazil",
              "countryCodeISO3": "BRA",
              "freeformAddress": "Rua Toledo Pizza, 25041-580, Duque de Caxias",
              "localName": "Duque de Caxias"
            },
            "position": {
              "lat": -22.6724,
              "lon": -43.29262
            },
            "viewport": {
              "topLeftPoint": {
                "lat": -22.67157,
                "lon": -43.29272
              },
              "btmRightPoint": {
                "lat": -22.67344,
                "lon": -43.29204
              }
            }
          },
          {
            "type": "Street",
            "id": "IT/STR/p0/1152394",
            "score": 2.0959999561,
            "matchConfidence": {
              "score": 1
            },
            "address": {
              "streetName": "Strada Pizz\u00E0",
              "municipality": "Torricella Verzate",
              "countrySecondarySubdivision": "Pavia",
              "countrySubdivision": "Lombardy",
              "postalCode": "27050",
              "countryCode": "IT",
              "country": "Italy",
              "countryCodeISO3": "ITA",
              "freeformAddress": "Strada Pizz\u00E0, 27050 Torricella Verzate",
              "localName": "Torricella Verzate"
            },
            "position": {
              "lat": 45.02043,
              "lon": 9.17392
            },
            "viewport": {
              "topLeftPoint": {
                "lat": 45.0206,
                "lon": 9.1726
              },
              "btmRightPoint": {
                "lat": 45.02023,
                "lon": 9.17464
              }
            }
          },
          {
            "type": "Street",
            "id": "US/STR/p0/4722363",
            "score": 2.0959999561,
            "matchConfidence": {
              "score": 1
            },
            "address": {
              "streetName": "Pizza Lane",
              "municipality": "Dover",
              "countrySecondarySubdivision": "Hillsborough",
              "countrySubdivision": "FL",
              "countrySubdivisionName": "Florida",
              "postalCode": "33527",
              "countryCode": "US",
              "country": "United States",
              "countryCodeISO3": "USA",
              "freeformAddress": "Pizza Lane, Dover, FL 33527",
              "localName": "Dover"
            },
            "position": {
              "lat": 27.97313,
              "lon": -82.24548
            },
            "viewport": {
              "topLeftPoint": {
                "lat": 27.97433,
                "lon": -82.24578
              },
              "btmRightPoint": {
                "lat": 27.97163,
                "lon": -82.24548
              }
            }
          },
          {
            "type": "Street",
            "id": "US/STR/p1/1415646",
            "score": 2.0959999561,
            "matchConfidence": {
              "score": 1
            },
            "address": {
              "streetName": "Pizza Lane",
              "municipality": "Stambaugh",
              "countrySecondarySubdivision": "Iron",
              "countrySubdivision": "MI",
              "countrySubdivisionName": "Michigan",
              "postalCode": "49935",
              "extendedPostalCode": "49935-8901",
              "countryCode": "US",
              "country": "United States",
              "countryCodeISO3": "USA",
              "freeformAddress": "Pizza Lane, Iron River, MI 49935",
              "localName": "Iron River"
            },
            "position": {
              "lat": 46.06282,
              "lon": -88.71562
            },
            "viewport": {
              "topLeftPoint": {
                "lat": 46.06563,
                "lon": -88.71685
              },
              "btmRightPoint": {
                "lat": 46.06023,
                "lon": -88.71399
              }
            }
          },
          {
            "type": "Street",
            "id": "US/STR/p1/6446821",
            "score": 2.0959999561,
            "matchConfidence": {
              "score": 1
            },
            "address": {
              "streetName": "Pizza Lane",
              "municipality": "Eastern",
              "countrySecondarySubdivision": "Pendleton",
              "countrySubdivision": "WV",
              "countrySubdivisionName": "West Virginia",
              "postalCode": "26802",
              "extendedPostalCode": "26802-8016, 26802-8043",
              "countryCode": "US",
              "country": "United States",
              "countryCodeISO3": "USA",
              "freeformAddress": "Pizza Lane, Brandywine, WV 26802",
              "localName": "Brandywine"
            },
            "position": {
              "lat": 38.62674,
              "lon": -79.24476
            },
            "viewport": {
              "topLeftPoint": {
                "lat": 38.62697,
                "lon": -79.2452
              },
              "btmRightPoint": {
                "lat": 38.62645,
                "lon": -79.24399
              }
            }
          },
          {
            "type": "Street",
            "id": "US/STR/p3/4407936",
            "score": 2.0959999561,
            "matchConfidence": {
              "score": 1
            },
            "address": {
              "streetName": "Pizza Lane",
              "municipality": "Wilson",
              "countrySecondarySubdivision": "Teton",
              "countrySubdivision": "WY",
              "countrySubdivisionName": "Wyoming",
              "postalCode": "83014",
              "extendedPostalCode": "83014-9164",
              "countryCode": "US",
              "country": "United States",
              "countryCodeISO3": "USA",
              "freeformAddress": "Pizza Lane, Wilson, WY 83014",
              "localName": "Wilson"
            },
            "position": {
              "lat": 43.51855,
              "lon": -110.84023
            },
            "viewport": {
              "topLeftPoint": {
                "lat": 43.51882,
                "lon": -110.84204
              },
              "btmRightPoint": {
                "lat": 43.51846,
                "lon": -110.83869
              }
            }
          },
          {
            "type": "Street",
            "id": "BR/STR/p0/1148757",
            "score": 2.075854063,
            "matchConfidence": {
              "score": 0.8838056393641002
            },
            "address": {
              "streetName": "Rua Doutor Luiz Pizza",
              "municipality": "Assis",
              "countrySubdivision": "S\u00E3o Paulo",
              "countryCode": "BR",
              "country": "Brazil",
              "countryCodeISO3": "BRA",
              "freeformAddress": "Rua Doutor Luiz Pizza, Assis",
              "localName": "Assis"
            },
            "position": {
              "lat": -22.65898,
              "lon": -50.4139
            },
            "viewport": {
              "topLeftPoint": {
                "lat": -22.65658,
                "lon": -50.41393
              },
              "btmRightPoint": {
                "lat": -22.6591,
                "lon": -50.4139
              }
            }
          }
        ]
      }
    }
  ],
  "Variables": {}
}
